stop_id,stop_code,stop_name,stop_lat,stop_lon,parent_station,location_type
stn-shinjuku,,Shinjuku Station,35.6905530,139.6995790,,1
stn-yokohama,,Yokohama Station,35.4666663,139.6212852,,1
stn-yokohama-west,,"Yokohama Station, West Gate",35.4666663,139.6212852,stn-yokohama,2
stn-odawara,OH 47,Odawara Station,35.2564,139.155,,1
stn-odawara-plt-7,,"Odawara Station, Platform 7",35.25615837475702,139.1553495315576,stn-odawara,0
stn-hakone-itabashi,OH 48,Hakone-Itabashi Station,35.2451330,139.1452250,,1
stn-kazamatsuri,OH 49,Kazamatsuri Station,35.2462447,139.1291964,,1
stn-iriuda,OH 50,Iriuda Station,35.2407720,139.1210600,,1
stn-hakone-yumoto,OH 51,Hakone-Yumoto Station,35.2335,139.1039,,1
stn-tonosawa,OH 52,Tonosawa Station,35.2344380,139.0939520,,1
stn-ohiradai,OH 53,Ohiradai Station,35.2385760,139.0741200,,1
stn-miyanoshita,OH 54,Miyanoshita Station,35.2419920,139.0630100,,1
stn-kowakidani,OH 55,Kowakidani Station,35.2405760,139.0524830,,1
stn-chokoku,OH 56,Chokoku-no-mori Station,35.2464500,139.0508340,,1
stn-gora,OH 57,Gora Station,35.2508,139.0482,,1
stn-koenshima,OH 58,Koen-Shima Station,35.2499080,139.0457050,,1
stn-koenkami,OH 59,Koen-Kami Station,35.2490740,139.0432060,,1
stn-nakagora,OH 60,Naka-Gora Station,35.2481300,139.0405950,,1
stn-kamigora,OH 61,Kami-Gora Station,35.2472410,139.0381780,,1
stn-sounzan,OH 62,Sounzan Station,35.2464630,139.0355950,,1
stn-owakudani,OH 63,Owakudani Station,35.2442960,139.0200970,,1
stn-ubako,OH 64,Ubako Station,35.2445466,139.0059891,,1
togendai,OH 65,Togendai,35.2378800,138.9945710,,1
hakonemachi,OH 66,Hakonemachi,35.1896438,139.0255558,,0
motohakone-ko,OH 67,Motohakone-ko,35.2009123,139.0306655,,0
stn-haneda-intl-bus,,Haneda International Terminal,35.5444068,139.7677875,,1
stn-haneda-t1,,Haneda Terminal 1,35.5491032,139.7846156,,1
stn-haneda-t2,,Haneda Terminal 2,35.5507661,139.7881347,,1
tonosawa-hot-spr,,Tonosawa Onsen (Hot Spring),35.2327790,139.0928042,,0
stn-odawara-east,101,"Odawara Station, East Gate",35.2557317,139.1563618,stn-odawara,2
midoricho,102,Midoricho,35.2541591,139.1584754,,0
103,103,Yubinkyoku-mae,35.25272214741507,139.15926287400802,,0
104,104,Shimin-kaikan-mae,35.251032106522814,139.1593084296032,,0
105,105,Saiwaicho,35.24910662350884,139.15949188429377,,0
106,106,Honcho,35.247805841883434,139.15838651232178,,0
107,107,Miyuki-no-hama,35.24762159029566,139.1576297627939,,0
108,108,Hakone-guchi,35.2472681,139.1556752,,0
109,109,Morohaku-koji,35.247120129564784,139.15334213526165,0
110,110,Hayakawa-guchi,35.24677341748901,139.15081816497243,0
111,111,Itabashi-Mitsuke,35.24612077365975,139.14749717110163,0
112,112,Hakone-Itabashi Station,35.24573175381025,139.14481446767385,,0
113,113,Beaver-tozan-mae,35.24616278931081,139.1425337916597,,0
114,114,Kami-Itabashi,35.24671399711779,139.1405672543017,,0
115,115,Higashi-Kazamatsuri,35.24686239744222,139.1322794904899,,0
116,116,Kazamatsuri Station,35.245242208629946,139.129210899174,,0
117,117,Iriuda Station,35.24079500707092,139.12161346484766,,0
118,118,Higashi-Yamasaki,35.23883179690322,139.11831068277823,,0
119,119,Yamasaki,35.23733201395241,139.1163605239323,,0
120,120,Higashi-Sanmaibashi,35.2339226,139.1115904,,0
121,121,Sanmaibashi,35.2338919,139.1083181,,0
122,122,Hakone-Yumoto Station,35.23307564395176,139.1035451123956,,0
123,123,Onsenba-iriguchi (Hot spring bairiguchi),35.23169715373358,139.10115144899015,,0
124,124,Tonosawa,35.2327658,139.0952128,,0
125,125,Kami-tonosawa,35.23276125598498,139.0928067752374,,0
126,126,Deyama,35.2336772,139.0866083,,0
127,127,Ohiradai Station,35.238494264934424,139.0737855752611,,0
128,128,Ohiradai,35.2381421,139.0729451,,0
129,129,Miyanoshita Station,35.242894579600865,139.06272202008165,,0
130,130,Miyanoshita-onsen,35.2439858,139.0604836,,0
131,131,Hotel-mae,35.2449681,139.0591103,,0
132,132,Jinja-shita,35.244044459625755,139.0574079461002,,0
133,133,Kami-Sokokura,35.242331387242736,139.05572283813086,,0
134,134,Jakotsuno,35.2413177,139.0545130,,0
135,135,Kowakidani Station,35.24011198817432,139.05347142036538,,0
136,136,Ninotaira-iriguchi,35.2409330,139.0494221,,0
137,137,Kowaki-en,35.2392024,139.0465683,,0
138,138,Yunessun-mae,35.2390027626337,139.0455893979025,,0
139,139,Horai-en,35.23675021438157,139.04735487259853,,0
140,140,Kami-Takanosu,35.23092437071679,139.05061298708378,,0
141,141,Saruno-chaya,35.22928591531084,139.04881568567325,,0
142,142,Fuezuka,35.22561613820781,139.04915455902156,,0
143,143,Yusakamichi-iriguchi,35.22144601114974,139.0503260331526,,0
144,144,Higashi-Ashinoyu,35.22076051796035,139.04452290505665,,0
145,145,Ashinoyu,35.21967260692453,139.04217994058575,,0
146,146,Sogakyodai-no-haka,35.21687293612663,139.03824307416016,,0
147,147,Rokudo-jizo,35.21334458346796,139.03615304601573,,0
148,148,Futago-jaya,35.21068038680401,139.0367435945076,,0
oshiba,149,Oshiba,35.2051387,139.0336078,,0
151,151,Hakone-jinja-iriguchi,35.20268454790703,139.03157164177026,,0
152,152,Motohakone-ko,35.20089013499547,139.03081312887562,,0
153,153,Hakone-shisho-mae,35.198707941723086,139.02959932082123,,0
154,154,Onshi-koen-mae,35.19407582719218,139.0274596348999,,0
155,155,Hakone-sekisho-ato,35.19140445493812,139.02732263155642,,0
156,156,Hakone Hotel-mae,35.19055891014612,139.0265282210146,,0
shin-hatajuku,171,Shin-Hatajuku,35.2117264,139.0615135,,0
232,232,Kiga-onsen-iriguchi,35.24573698805268,139.05671564061652,,0
233,233,Kiga-no-sato,35.2473948609916,139.05305299565867,,0
234,234,Kiga-sakashita,35.25051104153021,139.05217789383227,,0
235,235,Miyaginobashi,35.25157211175828,139.0520512928064,,0
236,236,Miyagino-eigyosho-mae,35.2535434162637,139.05097736887214,,0
237,237,Miyagino,35.255190639689246,139.04882122386704,,0
238,238,Myojindaira,35.256770122313725,139.0466991136862,,0
239,239,Itari,35.25809016341293,139.0410006963744,,0
240,240,Momijigaoka,35.2590423087797,139.03471061795122,,0
241,241,Shuzan-shita,35.25938811582704,139.03243443197061,,0
242,242,Kozuka-iriguchi,35.2650055599472,139.02219436751145,,0
hyoseki,243,"Hyoseki, Hakone Garassu-no-mori-mae (Hakone Venetian Glass Museum)",35.26634138643249,139.01854030565696,,0
shinanoki,244,Shinanoki,35.2673216,139.0168011,,0
sengokuhara-shogakko,245,Sengokuhara-shogakko-mae,35.27065638986368,139.01283404746462,,0
sengoku,246,Sengoku,35.27305794717773,139.0114032251884,,0
sengoku-annaijo,247,Sengoku-annaijo-mae,35.27105422004356,139.01021115511924,,0
sengokukara-bunka,248,Sengokuhara Bunka Center-mae,35.26999630582975,139.01119061656578,,0
249,249,"Kawamukai / Little Prince Museum",35.266826947021244,139.01297046010714,,0
250,250,Senkyoro-mae,35.26422381890464,139.01391763799634,,0
251,251,Daigatake,35.26393062901887,139.01041405251118,,0
sengoku-kogen,252,Sengoku-kogen,35.2587248,139.0008205,,0
253,253,Tokyo Hoso-iriguchi,35.25457923591707,138.99937830561922,,0
254,254,Minami-Sengokuhara,35.2525840547341,138.998601326045,,0
255,255,Hakone Country-iriguchi,35.25152878281744,138.99871543208093,,0
256,256,Ubako-onsen-iriguchi,35.24868760418198,138.99845128368574,,0
257,257,Onsenso,35.2476215132455,138.99708881404658,,0
258,258,Palace Hotel Hakone-mae,35.24649761181286,138.99749042360597,,0
259,259,Minami-Onsenso,35.243848359974415,138.99931691660947,,0
260,260,Koen-kanri-jimusho-mae,35.24155910573212,138.99806930794622,,0
261,261,Shirayuridai,35.24130844188189,138.9956422775112,,0
262,262,Hakone Lake Hotel-mae,35.239553773258194,138.99367561557835,,0
shimojuku,322,Shimojuku,35.2322663,139.1085112,,0
yumoto-yubinkyoku,323,Yumoto-Yubinkyoku-mae,35.2305443,139.1064298,,0
324,324,Soun-koen-mae,35.22952565785237,139.1046346521159,,0
325,325,Yumoto-Nakajuku,35.22896437484066,139.10180593401253,,0
326,326,Sogado-ue,35.22840246536964,139.09925922111378,,0
327,327,Daino-chaya,35.228196479274615,139.09623940133892,,0
328,328,Oku-Yumoto-iriguchi,35.22487203518627,139.09028428058897,,0
329,329,Okuno-chaya,35.22381630428145,139.08805476288128,,0
330,330,Kuzuhara,35.22284867591931,139.08598692924545,,0
hotel-hatsuhana,331,Hotel Hatsuhana-mae,35.22186214563124,139.08001367876503,,0
sukumogawa,332,Sukumogawa,35.2209825,139.0753859,,0
kami-sukumogawa,333,Kami-Sukumogawa,35.2200397805384,139.0725830981628,,0
334,334,Hatsudensho-mae,35.21803173219951,139.06998871309335,,0
335,335,Honjin-ato,35.213334690624016,139.06392815724203,,0
hatajuku,336,Hatajuku,35.2120595,139.0627259,,0
kami-hatajuku,337,Kami-Hatajuku,35.2115598,139.0609074,,0
338,338,Kashinoki-zaka,35.2091307058294,139.05885392373472,,0
339,339,Miharashi-jaya,35.20858622648695,139.05695473429247,,0
340,340,Sarusuberi-zaka,35.203851525725575,139.05355823599186,,0
341,341,Amazake-chaya,35.20209040423297,139.04879571269421,,0
342,342,Kyukaido-ishidatami (Old Tokaido Highway),35.20375618097915,139.04421910347983,,0
343,343,Otamagaike,35.20551878954948,139.03907443933295,,0
344,344,Kyukaido-guchi,35.20572528057817,139.0355037865437,,0
ninotaira,427,Ninotaira,35.2429177,139.0497923,,0
chokoku,428,"Chokoku-no-mori, Hakone Open Air Museum",35.2452528,139.0506721,,0
430,430,Hakone Yutowa-mae,35.2487313,139.0483975,,0
hakone-art,433,"Hakone-bijutsukan, Gora-koen (Hakone Museum of Art, Hakone Gora Park)",35.2486612,139.0434086,,0
434,434,Himeshara-rindo-iriguchi,35.252765688303064,139.0392352486859,,0
435,435,Komorebi-zaka,35.252132775775735,139.03510796327353,,0
436,436,Shimoyu-onsen,35.25321334940503,139.02784680705457,,0
437,437,Bangakuro-mae,35.25259212591889,139.0271625580686,,0
438,438,Yubanaka,35.25292338619562,139.0246481821098,,0
pola-art,439,Pola Art Museum,35.2562880,139.0204167,,0
440,440,Motoyu-onsen,35.26242412547646,139.01634575324593,,0
443,443,Hakone Garassu-no-mori-mae (Hakone Venetian Glass Museum),35.2666413003987,139.01751997618356,,0
448,448,"Hakone Lalique-bijutsukan (Lalique Museum Hakone)",35.27046103963194,139.00945935769965,,0
449,449,Ohara,35.269144887142595,139.00790155423917,,0
hakone-garden,450,Shissei-kaen-mae (Hakone Botanical Garden of Wetlands),35.2673076,139.0064424,,0
547,547,Kintoki-tozanguchi,35.27444931129529,139.00953835885247,,0
548,548,Tarodaira,35.27546221684685,139.00672997713644,,0
549,549,Kintoki-jinja-iriguchi,35.276930508545576,139.00322675601348,,0
550,550,Otome-guchi,35.27711889826678,138.99544627205833,,0
551,551,Golf-jo,35.274332753589505,138.99228599391813,,0
552,552,Otome-toge,35.28291585148677,138.98266472290015,,0
553,553,Nagao-guchi,35.28864516202319,138.97138984752786,,0
554,554,Onsen-kaikan-mae,35.2883642,138.9686018,,0
555,555,Fukasawa,35.2887171347194,138.96510089185134,,0
556,556,Higashiyama,35.28545016240929,138.95690453609905,,0
557,557,Heiwa-koen-mae,35.286741810358954,138.9531771962772,,0
nino-oka-iriguchi,558,Nino-oka-iriguchi,35.2873921,138.9503789,,0
559,559,Nino-oka,35.289120935012086,138.94960828940916,,0
560,560,Chichibunomiya-kinen-koen,35.289298011394465,138.95012101906397
561,561,Higashiyama-kyu-kishitei-mae,35.29574240157765,138.95848112320348,,0
562,562,"Hotel Clad, Konohana no Yu",35.30389850564447,138.9670334294665,,0
gotemba-outlets,563,Gotemba Premium Outlets&reg;,35.3074401,138.9621592,,0
564,,Gotemba Inter-mae,35.29412258184315,138.94549611907127,,0
tomei-gotemba,565,Tomei-Gotemba,35.2949408,138.9455187,,0
568,568,Gotemba Station (Hakone Otome exit),35.30032303166077,138.93532325429868,,2
759,759,Ashikawa-iriguchi,35.188097827200835,139.02412338176836,,0
760,760,Odo-mae,35.18681732509405,139.01979813667242,,0
761,761,Hakone Yasuragi-no-mori,35.18750238637719,139.01660674237564,,0
762,762,Hakone-toge,35.18237235728119,139.0140508625486,,0
769,769,Mishima Skywalk,35.15243999891918,138.98522298288728,,0
798,798,Mishima Sta.,35.12563102819244,138.91206502406536,,0
839,839,Ten-yu,35.23878555999217,139.04424403243152,,0
861,861,Kojiri,35.23417374148278,138.99787580761608,,0
yama-no-hotel,868,Odakyu Yama-no Hotel,35.2042633,139.0218437,,0
